<?xml version='1.0' encoding='UTF-8'?>
<kml xmlns='http://www.opengis.net/kml/2.2'>
	<Document>
		<name>Kota Acara</name>
		<Placemark>
			<name>Bandung</name>
			<styleUrl>#icon-503-DB4436-nodesc</styleUrl>
			<ExtendedData>
			</ExtendedData>
			<Point>
				<coordinates>107.61912280000001,-6.9174639,0.0</coordinates>
			</Point>
		</Placemark>
		<Placemark>
			<name>Medan</name>
			<styleUrl>#icon-503-DB4436-nodesc</styleUrl>
			<ExtendedData>
			</ExtendedData>
			<Point>
				<coordinates>98.67222270000002,3.5951956000000003,0.0</coordinates>
			</Point>
		</Placemark>
		<Placemark>
			<name>Institut Teknologi Del</name>
			<styleUrl>#icon-503-DB4436-nodesc</styleUrl>
			<ExtendedData>
			</ExtendedData>
			<Point>
				<coordinates>99.14803299999994,2.385674,0.0</coordinates>
			</Point>
		</Placemark>
		<Placemark>
			<name>Tangerang</name>
			<styleUrl>#icon-503-DB4436-nodesc</styleUrl>
			<ExtendedData>
			</ExtendedData>
			<Point>
				<coordinates>106.65270989999999,-6.2023936,0.0</coordinates>
			</Point>
		</Placemark>
		<Placemark>
			<name>Bogor</name>
			<styleUrl>#icon-503-DB4436-nodesc</styleUrl>
			<ExtendedData>
			</ExtendedData>
			<Point>
				<coordinates>106.80603880000001,-6.597146899999999,0.0</coordinates>
			</Point>
		</Placemark>
		<Placemark>
			<name>Yogyakarta</name>
			<styleUrl>#icon-503-DB4436-nodesc</styleUrl>
			<ExtendedData>
			</ExtendedData>
			<Point>
				<coordinates>110.36948959999995,-7.7955798,0.0</coordinates>
			</Point>
		</Placemark>
		<Placemark>
			<name>Surabaya</name>
			<styleUrl>#icon-503-DB4436-nodesc</styleUrl>
			<ExtendedData>
			</ExtendedData>
			<Point>
				<coordinates>112.75208829999998,-7.2574719,0.0</coordinates>
			</Point>
		</Placemark>
		<Placemark>
			<name>Malang</name>
			<styleUrl>#icon-503-DB4436-nodesc</styleUrl>
			<ExtendedData>
			</ExtendedData>
			<Point>
				<coordinates>112.63263210000002,-7.9666204,0.0</coordinates>
			</Point>
		</Placemark>
		<Placemark>
			<name>Balikpapan</name>
			<styleUrl>#icon-503-DB4436-nodesc</styleUrl>
			<ExtendedData>
			</ExtendedData>
			<Point>
				<coordinates>116.8528526,-1.2379274,0.0</coordinates>
			</Point>
		</Placemark>
		<Placemark>
			<name>Denpasar</name>
			<styleUrl>#icon-503-DB4436-nodesc</styleUrl>
			<ExtendedData>
			</ExtendedData>
			<Point>
				<coordinates>115.21262930000002,-8.670458199999999,0.0</coordinates>
			</Point>
		</Placemark>
		<Placemark>
			<name>Makassar</name>
			<styleUrl>#icon-503-DB4436-nodesc</styleUrl>
			<ExtendedData>
			</ExtendedData>
			<Point>
				<coordinates>119.43273139999998,-5.147665099999999,0.0</coordinates>
			</Point>
		</Placemark>
		<Placemark>
			<name>Maluku</name>
			<styleUrl>#icon-503-DB4436-nodesc</styleUrl>
			<ExtendedData>
			</ExtendedData>
			<Point>
				<coordinates>130.14527339999995,-3.2384616,0.0</coordinates>
			</Point>
		</Placemark>
		<Placemark>
			<name>Semarang</name>
			<styleUrl>#icon-503-DB4436-nodesc</styleUrl>
			<ExtendedData>
			</ExtendedData>
			<Point>
				<coordinates>110.43812539999999,-7.0051453,0.0</coordinates>
			</Point>
		</Placemark>
		<Placemark>
			<name>Banyumas Regency</name>
			<styleUrl>#icon-503-DB4436-nodesc</styleUrl>
			<ExtendedData>
			</ExtendedData>
			<Point>
				<coordinates>109.14043800000002,-7.4832133,0.0</coordinates>
			</Point>
		</Placemark>
		<Placemark>
			<name>Belitung</name>
			<styleUrl>#icon-503-DB4436-nodesc</styleUrl>
			<ExtendedData>
			</ExtendedData>
			<Point>
				<coordinates>107.95318359999999,-2.8708938000000006,0.0</coordinates>
			</Point>
		</Placemark>
		<Placemark>
			<name>Wonosobo Regency</name>
			<styleUrl>#icon-503-DB4436-nodesc</styleUrl>
			<ExtendedData>
			</ExtendedData>
			<Point>
				<coordinates>109.9001796,-7.363209399999999,0.0</coordinates>
			</Point>
		</Placemark>
		<Placemark>
			<name>Palembang</name>
			<styleUrl>#icon-503-DB4436-nodesc</styleUrl>
			<ExtendedData>
			</ExtendedData>
			<Point>
				<coordinates>104.77543070000002,-2.9760735,0.0</coordinates>
			</Point>
		</Placemark>
		<Style id='icon-503-DB4436-nodesc-normal'>
			<IconStyle>
				<color>ff3644DB</color>
				<scale>1.1</scale>
				<Icon>
					<href>http://www.gstatic.com/mapspro/images/stock/503-wht-blank_maps.png</href>
				</Icon>
				<hotSpot x='16' y='31' xunits='pixels' yunits='insetPixels'>
				</hotSpot>
			</IconStyle>
			<LabelStyle>
				<scale>0.0</scale>
			</LabelStyle>
			<BalloonStyle>
				<text><![CDATA[<h3>$[name]</h3>]]></text>
			</BalloonStyle>
		</Style>
		<Style id='icon-503-DB4436-nodesc-highlight'>
			<IconStyle>
				<color>ff3644DB</color>
				<scale>1.1</scale>
				<Icon>
					<href>http://www.gstatic.com/mapspro/images/stock/503-wht-blank_maps.png</href>
				</Icon>
				<hotSpot x='16' y='31' xunits='pixels' yunits='insetPixels'>
				</hotSpot>
			</IconStyle>
			<LabelStyle>
				<scale>1.1</scale>
			</LabelStyle>
			<BalloonStyle>
				<text><![CDATA[<h3>$[name]</h3>]]></text>
			</BalloonStyle>
		</Style>
		<StyleMap id='icon-503-DB4436-nodesc'>
			<Pair>
				<key>normal</key>
				<styleUrl>#icon-503-DB4436-nodesc-normal</styleUrl>
			</Pair>
			<Pair>
				<key>highlight</key>
				<styleUrl>#icon-503-DB4436-nodesc-highlight</styleUrl>
			</Pair>
		</StyleMap>
	</Document>
</kml>